{
"type": "FeatureCollection",
"name": "points",
"features": [
{ "type": "Feature", "properties": { "marker-color": "#7e7e7e", "marker-size": "medium", "name": "Rencontre Annuelle<br>1001 événements s'engagent", "minzoom": 5, "maxzoom": "15", "type": "circle-15", "desc": "", "marker-symbol": "circle" }, "geometry": { "type": "Point", "coordinates": [ -1.560813810635998, 47.206500219468289 ] } },
{ "type": "Feature", "properties": { "marker-color": "#009d00", "marker-size": "medium", "name": "Mairie de Doulon<br>Arret de tramway ligne 1", "minzoom": 15, "maxzoom": "", "type": "rail-ligth-15", "desc": "Ligne tramway 1", "marker-symbol": "rail-light" }, "geometry": { "type": "Point", "coordinates": [ -1.54823111862528, 47.2063690724327 ] } },
{ "type": "Feature", "properties": { "marker-color": "#3dd6f5", "marker-size": "medium", "name": "Gare de l'état<br>Ligne de bus C5", "minzoom": 15, "maxzoom": "", "type": "bus-15", "desc": "Ligne de bus C5", "marker-symbol": "bus" }, "geometry": { "type": "Point", "coordinates": [ -1.560338919222277, 47.204690361740184 ] } },
{ "type": "Feature", "properties": { "marker-color": "#2905f8", "marker-size": "medium", "name": "Parking \"Les Machines\"<br> Cout à la journée 12,20€", "minzoom": 15, "maxzoom": "", "type": "car-15", "desc": "Capacité très limitée", "marker-symbol": "car" }, "geometry": { "type": "Point", "coordinates": [ -1.56279445531274, 47.205896940419997 ] } },
{ "type": "Feature", "properties": { "marker-color": "#005ffd", "marker-size": "medium", "name": "Station Bicloo<br>Ecole d'architecture", "type": "", "desc": "", "marker-symbol": "bicloo" }, "geometry": { "type": "Point", "coordinates": [ -1.557561092794665, 47.207617652124533 ] } },
{ "type": "Feature", "properties": { "marker-color": "#009d00", "marker-size": "medium", "name": "Médiathèque<br>Arret de tramway ligne 1", "minzoom": 15, "maxzoom": "", "type": "rail-ligth-15", "desc": "Ligne tramway 1", "marker-symbol": "rail-light" }, "geometry": { "type": "Point", "coordinates": [ -1.560987551397117, 47.211037707201527 ] } },
{ "type": "Feature", "properties": { "marker-color": "#2905f8", "marker-size": "medium", "name": "Parking voiture Gloriette<br>Tarif pour 8h : 20 €", "minzoom": 15, "maxzoom": "", "type": "car-15", "desc": "Capacité très limitée", "marker-symbol": "car" }, "geometry": { "type": "Point", "coordinates": [ -1.561831712960995, 47.210428296021213 ] } },
{ "type": "Feature", "properties": { "marker-color": "#005ffd", "marker-size": "medium", "name": "Station Bicloo<br>Palais de Justice", "minzoom": null, "maxzoom": null, "type": "", "desc": "", "marker-symbol": "bicloo" }, "geometry": { "type": "Point", "coordinates": [ -1.561146723909644, 47.208308630497854 ] } },
{ "type": "Feature", "properties": { "marker-color": "#005ffd", "marker-size": "medium", "name": "Station Bicloo<br>Machines de l'Île", "minzoom": null, "maxzoom": null, "type": "", "desc": "", "marker-symbol": "bicloo" }, "geometry": { "type": "Point", "coordinates": [ -1.56490346149353, 47.206975744523859 ] } },
{ "type": "Feature", "properties": { "marker-color": "#005ffd", "marker-size": "medium", "name": "Stationnement vélo 80 places<br>Animation à partir de 12h", "minzoom": null, "maxzoom": null, "type": "", "desc": "", "marker-symbol": "bicycle" }, "geometry": { "type": "Point", "coordinates": [ -1.559771976357507, 47.206469450136609 ] } },
{ "type": "Feature", "properties": { "marker-color": "#005ffd", "marker-size": "medium", "name": "Station Bicloo<br>Prairie au Duc", "minzoom": null, "maxzoom": null, "type": "", "desc": "", "marker-symbol": "bicloo" }, "geometry": { "type": "Point", "coordinates": [ -1.55890332798405, 47.204789067373696 ] } }
]
}
